{
  "countries": [
    {
      "name": "Czech Republic",
      "locations": [
        {
          "name": "Kouty",
          "latitude": "50.101786",
          "longitude": "17.116638"
        },
        {
          "name": "Koprivna",
          "latitude": "50.034173",
          "longitude": "17.308676"
        },
        {
          "name": "Rychlebske Stezky",
          "latitude": "50.301901",
          "longitude": "17.158454"
        },
        {
          "name": "Javorovy Vrch",
          "latitude": "49.621694",
          "longitude": "18.607586"
        }
      ]
    },
    {
      "name": "Slovakia",
      "locations": [
        {
          "name": "Ruzomberok",
          "latitude": "49.072713",
          "longitude": "19.284158"
        },
        {
          "name": "Gruniky",
          "latitude": "49.517297",
          "longitude": "19.377864"
        },
        {
          "name": "Kalnica",
          "latitude": "48.755834",
          "longitude": "17.937022"
        }
      ]
    },
    {
      "name": "Poland",
      "locations": [
        {
          "name": "Rybnik",
          "latitude": "50.108968",
          "longitude": "18.545072"
        },
        {
          "name": "Kasina",
          "latitude": "49.719046",
          "longitude": "20.152346"
        },
        {
          "name": "Międzybrodzie Żywieckie",
          "latitude": "49.787449",
          "longitude": "19.225976"
        },
        {
          "name": "Bielsko-Biała",
          "latitude": "49.779385",
          "longitude": "19.055338"
        }
      ]
    }
  ]
}

